City,Lat,Lng,Max Temp,Humidity,Cloudiness,Wind Speed,Country,Date
busselton,-33.65,115.33,55.99,80,0,1.01,AU,1602976494
pisco,-13.7,-76.22,66.2,72,4,20.8,PE,1602976513
jamestown,42.1,-79.24,50.0,37,1,6.93,US,1602976520
ambilobe,-13.2,49.05,69.85,79,6,3.44,MG,1602976594
neenah,44.19,-88.46,57.99,28,75,16.11,US,1602976550
luderitz,-26.65,15.16,65.77,45,0,17.83,NA,1602976552
saint-philippe,-21.36,55.77,69.8,68,29,3.36,RE,1602976500
pangnirtung,66.15,-65.71,30.51,95,100,3.18,CA,1602976585
umea,63.83,20.26,30.2,100,48,4.7,SE,1602976574
vera cruz,-12.63,-41.03,77.79,54,5,10.65,BR,1602976835
east london,-33.02,27.91,66.85,70,87,9.22,ZA,1602976504
hami,42.8,93.45,43.34,51,0,6.22,CN,1602976490
indramayu,-6.33,108.32,80.85,73,17,8.5,ID,1602976838
fairbanks,64.84,-147.72,27.0,38,75,3.36,US,1602976522
cabo san lucas,22.89,-109.91,89.6,70,40,8.05,MX,1602976456
flin flon,54.77,-101.86,30.2,80,90,11.41,CA,1602976504
daud khel,32.88,71.57,71.98,22,0,1.72,PK,1602976842
bambous virieux,-20.34,57.76,69.8,83,20,6.44,MU,1602976498
qaanaaq,77.48,-69.36,34.68,89,100,9.19,GL,1602976494
rikitea,-23.12,-134.97,74.21,80,100,20.42,PF,1602976487
puerto ayora,-0.74,-90.35,71.01,87,85,7.0,EC,1602976486
iqaluit,63.75,-68.51,33.8,74,75,9.17,CA,1602976556
atuona,-9.8,-139.03,78.53,72,0,14.41,PF,1602976488
hearst,49.68,-83.67,35.13,85,100,4.12,CA,1602976851
jiujiang,29.73,115.98,59.23,80,37,4.56,CN,1602976852
naze,28.37,129.48,73.4,94,75,11.41,JP,1602976503
kodiak,57.79,-152.41,46.4,61,90,4.7,US,1602976510
albany,42.6,-73.97,48.0,64,0,3.67,US,1602976384
sainte-marie,-20.9,55.55,69.8,73,20,10.29,RE,1602976856
punta arenas,-53.15,-70.92,44.6,87,100,11.41,CL,1602976484
mar del plata,-38.0,-57.56,71.01,82,16,5.82,AR,1602976456
hasaki,35.73,140.83,55.4,93,75,9.17,JP,1602976518
vagay,57.94,69.02,30.31,93,93,13.58,RU,1602976860
kutum,14.2,24.67,76.05,19,64,8.48,SD,1602976585
tuatapere,-46.13,167.68,51.01,68,89,8.99,NZ,1602976578
mataura,-46.19,168.86,51.01,69,89,8.01,NZ,1602976485
anori,-3.77,-61.64,86.02,56,96,1.28,BR,1602976864
namangan,41.0,71.67,53.6,58,0,6.93,UZ,1602976865
ahipara,-35.17,173.17,61.74,58,8,7.61,NZ,1602976589
hamilton,39.18,-84.53,57.99,32,61,6.15,US,1602976459
port hedland,-20.32,118.57,69.8,83,0,10.29,AU,1602976498
tiksi,71.69,128.87,18.18,97,100,10.76,RU,1602976491
hobart,-42.88,147.33,53.01,71,75,9.17,AU,1602976386
ponta do sol,32.67,-17.1,69.8,68,75,12.75,PT,1602976500
lebu,-37.62,-73.65,53.42,87,76,6.11,CL,1602976497
vaini,-21.2,-175.2,78.8,83,40,12.75,TO,1602976503
kruisfontein,-34.0,24.73,59.0,91,99,1.01,ZA,1602976510
cape town,-33.93,18.42,57.99,87,20,4.7,ZA,1602976447
necochea,-38.55,-58.74,72.0,67,0,5.01,AR,1602976485
falmouth,50.15,-5.07,52.0,87,56,8.05,GB,1602976579
redmond,47.67,-122.12,57.0,89,96,3.71,US,1602976360
unirea,44.15,23.18,48.0,80,4,1.01,RO,1602976880
castro,-24.79,-50.01,56.77,83,29,10.02,BR,1602976492
chokurdakh,70.63,147.92,24.73,98,100,3.85,RU,1602976505
saratoga,43.1,-73.85,50.0,68,1,3.71,US,1602976883
chuguyevka,44.17,133.86,45.28,74,13,5.26,RU,1602976888
bredasdorp,-34.53,20.04,53.6,93,41,3.36,ZA,1602976497
port-gentil,-0.72,8.78,78.8,88,90,8.05,GA,1602976568
broome,42.25,-75.83,46.0,74,0,3.89,US,1602976496
shimoda,34.67,138.95,54.0,90,100,1.99,JP,1602976892
mvuma,-19.28,30.53,61.59,70,0,4.85,ZW,1602976893
matara,5.95,80.54,77.43,85,86,11.36,LK,1602976567
flensburg,54.78,9.43,50.0,87,79,13.38,DE,1602976895
taoudenni,22.68,-3.98,84.79,21,0,8.79,ML,1602976499
bluff,-46.6,168.33,51.01,68,92,8.99,NZ,1602976520
khatanga,71.97,102.5,3.9,90,15,8.14,RU,1602976488
portoferraio,42.81,10.31,55.99,10,13,10.2,IT,1602976750
barrow,71.29,-156.79,21.2,73,1,13.87,US,1602976515
marsh harbour,26.54,-77.06,81.55,77,99,20.92,BS,1602976903
dikson,73.51,80.55,15.94,95,3,22.53,RU,1602976514
segezha,63.74,34.32,41.86,89,100,14.83,RU,1602976906
anqing,30.51,117.05,57.52,82,23,5.64,CN,1602976907
oga,46.46,10.35,41.0,92,17,1.12,IT,1602976908
longyearbyen,78.22,15.64,19.4,79,20,5.82,SJ,1602976526
ushuaia,-54.8,-68.3,42.8,75,75,8.05,AR,1602976490
leesburg,39.12,-77.56,52.0,53,1,3.36,US,1602976790
amapa,1.0,-52.0,80.53,60,60,4.59,BR,1602976913
kavieng,-2.57,150.8,83.66,71,100,6.69,PG,1602976535
new norfolk,-42.78,147.06,53.01,78,59,1.01,AU,1602976504
yellowknife,62.46,-114.35,26.6,79,90,13.87,CA,1602976502
cabedelo,-6.98,-34.83,77.0,83,7,8.05,BR,1602976615
lelydorp,5.7,-55.23,82.99,84,20,4.0,SR,1602976919
carnarvon,-24.87,113.63,68.0,82,90,13.87,AU,1602976493
esperance,-33.87,121.9,46.4,100,0,8.05,AU,1602976573
ascension,30.22,-90.9,73.4,49,1,4.7,US,1602976923
araouane,18.9,-3.53,91.38,15,0,6.24,ML,1602976924
clyde river,70.47,-68.59,37.4,74,75,17.22,CA,1602976486
sitka,57.05,-135.33,44.6,56,75,9.17,US,1602976507
aswan,24.09,32.91,80.94,29,0,8.5,EG,1602976927
atar,20.52,-13.05,89.55,26,32,8.12,MR,1602976607
bacolod,10.67,122.95,80.33,78,91,3.0,PH,1602976865
korsakov,46.63,142.78,46.4,93,52,2.24,RU,1602976930
miraflores,19.22,-98.81,73.4,27,40,4.7,MX,1602976931
loubomo,-4.2,12.67,72.52,92,99,3.71,CG,1602976932
kathmandu,27.72,85.32,64.4,93,40,3.36,NP,1602976269
pevek,69.7,170.31,27.81,98,97,11.83,RU,1602976499
beloha,-25.17,45.05,65.14,81,37,15.52,MG,1602976585
rocha,-34.48,-54.33,65.73,80,94,8.66,UY,1602976574
shelburne,44.08,-80.2,45.0,56,1,4.7,CA,1602976657
nador,35.17,-2.93,59.0,82,0,3.04,MA,1602976813
council bluffs,41.26,-95.86,69.8,28,75,9.17,US,1602976673
sorland,67.67,12.69,43.7,62,100,34.52,NO,1602976534
batemans bay,-35.72,150.18,61.0,90,88,1.99,AU,1602976943
tobe,33.74,132.79,55.0,71,75,6.93,JP,1602976945
stephenville,32.22,-98.2,80.6,47,1,13.87,US,1602976559
denpasar,-8.65,115.22,78.8,83,75,5.82,ID,1602976947
severo-kurilsk,50.68,156.12,46.09,64,44,12.95,RU,1602976536
coahuayana,18.73,-103.68,82.4,74,75,11.41,MX,1602976561
la ronge,55.1,-105.28,28.4,74,90,20.8,CA,1602976530
brae,60.4,-1.35,41.0,80,99,8.05,GB,1602976484
upata,8.01,-62.4,74.5,84,78,5.32,VE,1602976952
upernavik,72.79,-56.15,35.82,95,100,21.03,GL,1602976494
narsaq,60.92,-46.05,37.4,76,2,4.7,GL,1602976526
ilulissat,69.22,-51.1,37.4,93,100,2.24,GL,1602976539
victoria,22.29,114.16,73.99,75,48,1.01,HK,1602976353
kapaa,22.08,-159.32,80.01,100,75,10.6,US,1602976489
jiblah,13.92,44.15,59.31,73,0,2.06,YE,1602976959
thompson,55.74,-97.86,30.2,92,90,6.93,CA,1602976496
lompoc,34.64,-120.46,86.0,30,1,16.11,US,1602976491
port alfred,-33.59,26.89,64.18,85,94,11.92,ZA,1602976542
dingle,11.0,122.67,77.85,85,99,0.76,PH,1602976601
buraydah,26.33,43.98,68.0,28,0,7.47,SA,1602976566
chegdomyn,51.12,133.02,24.89,88,63,10.09,RU,1602976968
kikwit,-5.04,18.82,71.91,92,73,1.86,CD,1602976970
half moon bay,37.46,-122.43,82.4,33,1,5.82,US,1602976408
douglas,41.3,-96.17,68.0,40,75,12.75,US,1602976915
norman wells,65.28,-126.83,23.0,57,5,6.93,CA,1602976551
hithadhoo,-0.6,73.08,82.94,77,52,20.49,MV,1602976542
odessa,46.48,30.73,53.6,93,4,3.2,UA,1602976976
almaty,43.25,76.95,48.2,45,20,6.71,KZ,1602976977
puerto gaitan,4.31,-72.08,81.28,73,63,5.59,CO,1602976978
hermanus,-34.42,19.23,55.0,94,32,4.68,ZA,1602976491
komsomolskoye,55.26,47.55,35.15,86,51,6.78,RU,1602976980
vestmannaeyjar,63.44,-20.27,47.66,85,100,10.96,IS,1602976650
sioux lookout,50.1,-91.92,37.4,37,90,2.68,CA,1602976576
san jose,37.34,-121.89,96.01,15,40,8.05,US,1602976353
wawa,9.9,4.42,76.39,86,15,3.98,NG,1602976986
eureka,40.8,-124.16,69.01,68,1,16.11,US,1602976987
klaksvik,62.23,-6.59,33.8,66,97,2.24,FO,1602976495
katete,-0.78,29.75,62.55,97,89,0.58,UG,1602976990
yar-sale,66.83,70.83,22.75,95,100,17.47,RU,1602976522
saint george,37.1,-113.58,88.0,9,1,12.75,US,1602976334
faanui,-16.48,-151.75,79.23,78,52,5.35,PF,1602976528
lima,-12.04,-77.03,64.4,77,75,12.75,PE,1602976890
vila velha,-20.33,-40.29,73.4,69,90,5.82,BR,1602976520
verkhoyansk,67.54,133.38,17.02,95,100,5.75,RU,1602976996
homer,59.64,-151.55,44.01,60,90,3.36,US,1602976347
tharad,24.4,71.63,84.52,61,55,4.76,IN,1602976998
te anau,-45.42,167.72,53.76,72,100,1.97,NZ,1602976528
dargaville,-35.93,173.88,63.37,51,13,6.17,NZ,1602977001
vila franca do campo,37.72,-25.43,62.6,77,75,10.29,PT,1602976548
mahebourg,-20.41,57.7,69.8,83,20,6.38,MU,1602976493
kitimat,54.05,-128.65,46.0,83,100,2.24,CA,1602977004
mlowo,-9.0,32.98,58.39,81,1,4.0,TZ,1602977005
panaba,21.28,-88.27,79.39,88,14,9.91,MX,1602976550
port pirie,-33.18,138.02,57.2,54,90,12.75,AU,1602977008
port hueneme,34.15,-119.2,82.0,73,1,6.93,US,1602976490
dharampur,20.53,73.18,75.76,89,12,4.27,IN,1602977010
saldanha,-33.01,17.94,55.4,87,38,5.82,ZA,1602976564
port elizabeth,-33.92,25.57,60.8,87,94,11.41,ZA,1602976517
jardim,-21.48,-56.14,79.21,62,49,5.77,BR,1602977013
bengkulu,-3.8,102.27,76.42,84,100,4.63,ID,1602976562
dir,35.21,71.88,55.42,38,0,7.07,PK,1602977015
aleksandrov gay,50.15,48.57,48.07,52,27,11.56,RU,1602977016
ontario,34.06,-117.65,91.99,18,20,11.41,US,1602977017
airai,-8.93,125.41,68.59,65,57,1.5,TL,1602976498
mawlaik,23.63,94.42,74.59,94,99,1.57,MM,1602977019
fare,-16.7,-151.02,80.37,72,70,2.77,PF,1602977020
tautira,-17.73,-149.15,82.4,74,75,17.22,PF,1602976567
chalus,36.66,51.42,55.4,82,0,5.57,IR,1602977022
jinchang,38.5,102.17,44.28,51,94,5.55,CN,1602977023
meulaboh,4.14,96.13,75.31,82,100,3.15,ID,1602976667
salalah,17.02,54.09,73.4,64,0,3.36,OM,1602976563
arandis,-22.42,14.97,57.0,93,23,1.99,NA,1602977026
merrill,45.18,-89.68,52.0,81,90,9.24,US,1602976906
chuy,-33.7,-53.46,63.81,79,99,10.51,UY,1602976519
kaabong,3.48,34.15,68.63,73,90,0.58,UG,1602976532
butaritari,3.07,172.79,82.58,78,13,21.07,KI,1602976507
guerrero negro,27.98,-114.06,83.12,43,83,12.84,MX,1602976502
salinas,36.68,-121.66,87.8,30,1,14.99,US,1602977035
lengshuijiang,27.69,111.43,55.42,89,100,2.28,CN,1602977036
komsomolskiy,40.43,71.72,53.6,58,0,6.93,UZ,1602976541
saskylakh,71.92,114.08,14.02,96,98,6.15,RU,1602976553
khasan,42.43,130.64,50.9,64,0,7.11,RU,1602976620
okato,-39.2,173.88,53.01,76,72,11.01,NZ,1602977040
bakchar,57.02,82.07,41.72,67,98,21.07,RU,1602977041
acapulco,16.86,-99.89,86.0,74,75,10.29,MX,1602976531
kaeo,-35.1,173.78,69.01,55,0,1.99,NZ,1602976544
husavik,66.04,-17.34,46.4,75,90,18.34,IS,1602976540
emilio carranza,19.97,-96.61,79.41,75,9,12.73,MX,1602977046
bathsheba,13.22,-59.52,80.6,83,20,9.17,BB,1602976519
shush,32.19,48.24,66.11,31,0,3.11,IR,1602977048
casper,42.87,-106.31,39.99,69,90,14.99,US,1602976970
avarua,-21.21,-159.78,78.8,65,84,16.11,CK,1602976506
matai,-8.3,31.52,62.31,58,1,8.28,TZ,1602977053
hilo,19.73,-155.09,89.6,52,1,12.75,US,1602976485
codrington,-38.27,141.97,50.94,78,88,8.39,AU,1602976566
rundu,-17.93,19.77,69.22,25,0,4.79,NA,1602977057
ormara,25.21,64.64,80.92,28,4,16.98,PK,1602977059
fortuna,40.6,-124.16,66.99,72,20,17.22,US,1602976542
kahului,20.89,-156.47,91.4,46,40,8.05,US,1602976619
margate,51.38,1.39,51.01,90,100,4.0,GB,1602976546
ostrovnoy,68.05,39.51,31.77,90,2,0.94,RU,1602976489
xining,36.62,101.77,33.64,75,78,0.76,CN,1602976570
breytovo,58.3,37.86,36.77,81,100,8.81,RU,1602977066
henties bay,-22.12,14.28,57.0,93,0,1.99,NA,1602976543
souillac,-20.52,57.52,69.8,83,20,6.49,MU,1602976542
ribeira grande,38.52,-28.7,63.19,63,88,15.05,PT,1602976516
miramar,25.99,-80.23,82.99,74,40,19.46,US,1602976823
san juan,-31.54,-68.54,84.52,22,0,7.99,AR,1602976823
nikolskoye,59.7,30.79,36.0,74,75,6.71,RU,1602976493
buin,-33.73,-70.75,71.01,42,0,10.29,CL,1602977074
jimenez,28.33,-105.4,87.8,20,20,12.75,MX,1602977075
port hardy,50.7,-127.42,50.0,87,90,6.93,CA,1602976560
colac,-38.33,143.58,50.0,76,75,7.85,AU,1602977077
manaus,-3.1,-60.02,86.0,66,69,2.24,BR,1602977047
soc trang,9.6,105.98,75.2,100,75,3.36,VN,1602977079
berlevag,70.86,29.09,37.96,74,100,13.11,NO,1602976639
sola,-13.88,167.55,80.1,78,41,18.16,VU,1602976525
aksay,47.26,39.87,60.8,59,52,8.95,RU,1602977083
westport,41.14,-73.36,59.0,28,1,2.84,US,1602976587
collingwood,44.48,-80.22,45.0,51,51,5.99,CA,1602976910
ivankiv,50.94,29.89,44.6,87,97,13.42,UA,1602977087
camacha,33.08,-16.33,68.0,68,20,12.75,PT,1602976493
tasiilaq,65.61,-37.64,33.8,86,28,17.22,GL,1602976515
caraquet,47.79,-64.94,53.6,100,90,2.24,CA,1602977091
korisos,40.5,21.38,57.99,75,1,2.24,GR,1602977092
sibolga,1.74,98.78,75.67,79,100,3.56,ID,1602976533
pacific grove,36.62,-121.92,87.8,18,1,9.17,US,1602977040
altay,47.87,88.12,38.23,59,1,6.73,CN,1602976599
matamoros,25.53,-103.25,91.4,19,5,6.04,MX,1602977096
humaita,-7.51,-63.02,83.3,60,68,1.99,BR,1602977097
snasa,64.25,12.38,38.07,86,100,18.03,NO,1602977099
quatre cocos,-20.21,57.76,69.8,83,20,7.11,MU,1602976591
tuktoyaktuk,69.45,-133.04,19.4,79,5,8.05,CA,1602977101
qasigiannguit,68.82,-51.19,37.4,93,100,2.24,GL,1602976601
makakilo city,21.35,-158.09,84.2,74,1,6.93,US,1602976525
paita,-5.09,-81.11,63.91,86,21,13.96,PE,1602977104
nanortalik,60.14,-45.24,39.31,83,20,2.89,GL,1602976518
broken hill,-31.95,141.43,48.2,87,90,16.11,AU,1602976542
kotido,2.98,34.13,70.68,76,95,4.25,UG,1602977108
mosquera,4.71,-74.23,60.8,59,75,5.82,CO,1602977039
egvekinot,66.32,-179.17,27.0,89,3,4.32,RU,1602976593
kuching,1.55,110.33,77.0,100,40,2.24,MY,1602977111
itoman,26.12,127.67,77.0,78,20,14.99,JP,1602976631
barwadih,23.83,84.12,72.12,89,59,1.88,IN,1602977113
orleans,30.03,-89.95,71.6,49,1,10.29,US,1602976929
awassa,7.05,38.47,60.03,84,94,2.93,ET,1602977115
los llanos de aridane,28.66,-17.92,69.8,77,100,2.24,ES,1602977116
hibbing,47.43,-92.94,33.8,99,90,12.75,US,1602977117
santa cruz,-17.8,-63.17,87.8,48,20,13.87,BO,1602976502
grindavik,63.84,-22.43,44.6,100,75,18.34,IS,1602976568
goderich,43.75,-81.72,51.01,68,58,5.99,CA,1602976537
verkhnyaya inta,65.98,60.31,27.55,97,100,14.65,RU,1602977121
arica,-18.48,-70.3,63.0,77,14,6.93,CL,1602977122
laguna,38.42,-121.42,96.01,13,1,4.7,US,1602977125
portland,45.52,-122.68,68.0,55,90,2.44,US,1602976856
alofi,-19.06,-169.92,82.4,83,100,10.29,NU,1602976544
coffs harbour,-30.3,153.13,77.0,57,87,1.12,AU,1602976871
dudinka,69.41,86.18,28.4,86,100,13.42,RU,1602977129
haaksbergen,52.16,6.74,39.0,89,2,4.72,NL,1602977130
anamur,36.08,32.84,62.6,93,22,4.7,TR,1602977131
bilma,18.69,12.92,82.15,16,0,1.05,NE,1602977132
road town,18.42,-64.62,81.0,83,20,5.82,VG,1602977133
pimenta bueno,-11.67,-61.19,81.48,56,53,2.1,BR,1602977004
yerbogachen,61.28,108.01,23.68,98,94,4.83,RU,1602977135
musoma,-1.5,33.8,72.73,68,75,5.26,TZ,1602977136
zhongxing,33.7,118.68,53.62,72,16,2.62,CN,1602977137
avera,33.19,-82.53,62.6,63,1,4.7,US,1602976550
nieuw amsterdam,5.88,-55.08,82.99,84,76,3.0,SR,1602977139
vestmanna,62.16,-7.17,33.8,76,96,2.24,FO,1602976596
rio gallegos,-51.62,-69.22,51.8,66,90,16.11,AR,1602976406
pauini,-7.71,-66.98,74.5,92,90,3.42,BR,1602977142
kichera,55.94,110.1,31.84,95,100,3.47,RU,1602977143
kosh-agach,50.0,88.67,25.75,81,100,1.03,RU,1602977144
salisbury,51.07,-1.8,48.2,87,99,3.36,GB,1602977146
mayahi,13.96,7.67,89.62,20,0,3.69,NE,1602977147
bukama,-9.2,25.85,74.93,52,1,2.21,CD,1602977148
mahuva,21.09,71.76,81.93,82,79,10.47,IN,1602977150
bodden town,19.28,-81.25,86.0,74,20,12.75,KY,1602977151
centralia,46.72,-122.95,61.0,67,58,1.01,US,1602977152
bethel,41.37,-73.41,46.0,70,1,1.19,US,1602977153
san patricio,28.02,-97.52,87.8,48,40,13.87,US,1602976560
shaunavon,49.65,-108.42,22.86,90,50,11.36,CA,1602976948
san quintin,30.48,-115.95,78.42,53,0,13.15,MX,1602977156
dhidhdhoo,6.88,73.1,81.93,78,44,13.8,MV,1602977157
dandong,40.13,124.39,48.7,80,0,5.1,CN,1602976560
pirgos,35.12,25.72,73.99,83,99,1.99,GR,1602977159
ape,57.54,26.69,31.48,96,29,4.79,LV,1602977160
buzmeyin,38.05,58.21,50.0,43,0,4.7,TM,1602977161
aklavik,68.22,-135.01,21.2,73,5,4.7,CA,1602976571
temir,49.14,57.13,49.14,78,39,6.42,KZ,1602977163
rio cuarto,-33.13,-64.35,86.0,35,4,19.46,AR,1602977164
lavrentiya,65.58,-171.0,38.88,87,76,4.9,RU,1602976583
kalmunai,7.42,81.82,78.33,74,100,3.2,LK,1602976608
ixtapa,20.7,-105.2,89.6,66,5,9.17,MX,1602976637
tiznit,29.58,-9.5,58.28,78,0,1.32,MA,1602977170
tura,25.52,90.22,73.4,92,14,2.19,IN,1602976603
kralendijk,12.15,-68.27,84.2,79,40,16.11,BQ,1602977172
belaya gora,68.53,146.42,21.61,97,94,10.58,RU,1602977173
lorengau,-2.02,147.27,84.34,71,61,9.71,PG,1602977174
beringovskiy,63.05,179.32,37.13,76,96,3.53,RU,1602976580
olafsvik,64.89,-23.71,45.34,84,98,21.83,IS,1602976666
ixtlan del rio,21.03,-104.37,84.0,45,0,1.81,MX,1602977180
nichinan,31.6,131.37,60.8,82,75,5.82,JP,1602977181
gizo,-8.1,156.84,83.88,72,75,6.82,SB,1602977182
pran buri,12.38,99.91,75.2,94,40,2.24,TH,1602977183
gewane,10.17,40.65,83.5,36,43,7.14,ET,1602977184
divo,5.84,-5.36,72.23,99,71,3.18,CI,1602977185
biak,-0.91,122.88,75.76,81,100,0.58,ID,1602976643
kangaatsiaq,68.31,-53.46,39.22,81,67,37.49,GL,1602977187
pierre,44.37,-100.35,41.0,60,90,12.75,US,1602976548
mandalgovi,45.76,106.27,32.31,81,0,8.97,MN,1602977191
prince rupert,54.32,-130.32,48.2,81,90,1.72,CA,1602977116
wajid,3.81,43.25,74.14,78,30,13.87,SO,1602977193
geraldton,-28.77,114.6,64.4,55,3,3.36,AU,1602977194
moranbah,-22.0,148.05,73.29,46,0,6.67,AU,1602977195
puerto cabezas,14.04,-83.39,82.4,83,40,4.7,NI,1602977196
provideniya,64.38,-173.3,38.77,88,63,2.68,RU,1602977197
xinzhou,38.41,112.73,43.05,55,4,1.05,CN,1602977198
remanso,-9.62,-42.08,84.22,34,32,5.95,BR,1602977199
coquimbo,-29.95,-71.34,53.6,93,90,3.36,CL,1602977141
kazachinskoye,57.7,93.28,43.81,77,100,7.92,RU,1602977201
korla,41.76,86.15,45.41,52,16,1.41,CN,1602977203
zhigansk,66.77,123.37,11.97,94,98,8.48,RU,1602977204
anadyr,64.75,177.48,37.4,69,23,2.24,RU,1602977205
las vegas,36.17,-115.14,91.0,8,1,4.7,US,1602977206
olinda,-8.01,-34.86,78.8,74,40,13.87,BR,1602976643
san luis obispo,35.37,-120.53,89.01,25,1,9.17,US,1602977209
shubarkuduk,49.14,56.49,49.75,77,53,5.53,KZ,1602977210
arona,28.1,-16.68,72.0,68,75,5.82,ES,1602977211
burton,43.0,-83.62,51.8,37,90,12.75,US,1602977212
derzhavinsk,51.1,66.32,42.46,64,75,13.35,KZ,1602977213
tilichiki,60.47,166.1,33.35,87,0,2.82,RU,1602977214
havre-saint-pierre,50.23,-63.6,48.2,100,90,20.8,CA,1602977215
polyarnyy,69.2,33.45,24.8,92,90,4.47,RU,1602977216
alekseyevsk,57.84,108.35,35.15,92,100,6.82,RU,1602977217
liusha,27.21,108.59,48.27,96,100,2.37,CN,1602977218
touros,-5.2,-35.46,77.0,78,1,11.41,BR,1602977220
antalaha,-14.9,50.28,69.62,87,33,5.77,MG,1602977221
watsa,3.04,29.54,64.96,100,100,2.64,CD,1602977222
fershampenuaz,53.52,59.81,31.64,92,0,5.19,RU,1602977223
longhua,23.61,114.19,61.93,81,27,3.89,CN,1602977224
tonj,7.27,28.68,72.0,94,92,4.0,SS,1602977225
ancud,-41.87,-73.82,54.0,81,75,16.11,CL,1602977226
kindersley,51.47,-109.17,24.8,58,90,23.04,CA,1602977227
cetraro,39.52,15.94,53.01,91,37,4.25,IT,1602977228
mathathane,-22.27,28.75,72.84,53,0,4.94,BW,1602977229
cabra,37.47,-4.44,55.0,55,19,3.29,ES,1602977230
vardo,70.37,31.11,39.45,70,77,13.69,NO,1602977231
hayden,47.77,-116.79,55.99,47,90,5.82,US,1602977233
plouzane,48.38,-4.62,48.2,87,83,8.05,FR,1602977234
udachnyy,66.42,112.4,5.0,92,0,4.47,RU,1602977236
castanos,26.78,-101.42,91.0,24,0,5.01,MX,1602977237
whitehorse,60.72,-135.05,23.0,45,5,5.82,CA,1602977239
port keats,-14.25,129.55,84.58,70,81,4.41,AU,1602977240
katsuura,35.13,140.3,57.99,82,75,12.75,JP,1602977196
sao filipe,14.9,-24.5,80.1,81,16,1.81,CV,1602977225
arraial do cabo,-22.97,-42.03,71.49,75,8,9.6,BR,1602977199
krasnooktyabrskiy,44.93,38.37,59.0,76,58,6.93,RU,1602977246
sabang,5.89,95.32,82.0,76,94,24.4,ID,1602977227
marsa matruh,31.35,27.25,74.26,61,0,6.53,EG,1602977248
mimongo,-1.62,11.61,70.95,95,96,2.75,GA,1602977249
djenne,13.91,-4.55,88.63,26,17,4.07,ML,1602977250
zhezkazgan,47.8,67.71,51.31,43,37,10.94,KZ,1602977208
flinders,-34.58,150.86,69.01,82,100,1.99,AU,1602977253
kamenka,51.32,42.77,52.0,69,100,3.0,RU,1602977254
bemidji,47.47,-94.88,35.01,80,1,6.93,US,1602977051
zhaoyuan,37.36,120.4,51.73,48,0,4.79,CN,1602977257
samarai,-10.62,150.67,80.42,82,73,8.68,PG,1602977258
zambezi,-13.54,23.1,70.54,48,0,5.79,ZM,1602977259
vostok,46.49,135.88,37.9,89,42,9.08,RU,1602977260
cooma,-36.23,149.13,46.4,100,90,10.29,AU,1602977261
richards bay,-28.78,32.04,69.75,84,1,10.4,ZA,1602977262
alexandria,31.22,29.96,71.6,78,0,2.24,EG,1602977263
abramovka,51.19,41.02,57.9,66,99,17.98,RU,1602977264
monrovia,6.3,-10.8,78.8,94,75,9.17,LR,1602977265
isangel,-19.55,169.27,80.6,69,20,9.17,VU,1602977225
koslan,63.46,48.9,31.21,98,75,8.59,RU,1602977268
sibut,5.72,19.07,71.4,86,99,2.59,CF,1602977269
terrace,54.52,-128.6,44.6,70,90,11.41,CA,1602977270
balrampur,27.43,82.18,70.41,59,0,4.83,IN,1602977271
cidreira,-30.18,-50.21,67.32,81,55,21.05,BR,1602977241
huarmey,-10.07,-78.15,65.12,78,16,7.92,PE,1602977274
leningradskiy,69.38,178.42,25.81,90,0,8.46,RU,1602977243
hualmay,-11.1,-77.61,64.26,80,6,8.81,PE,1602977278
torbay,47.67,-52.73,51.01,100,90,11.41,CA,1602977259
idritsa,56.33,28.9,34.16,90,100,2.57,RU,1602977280
gravdal,68.12,13.5,42.49,65,98,28.9,NO,1602977281
maniitsoq,65.42,-52.9,38.82,95,99,9.89,GL,1602977283
anshun,26.25,105.93,47.43,89,99,7.7,CN,1602977234
puerto colombia,10.99,-74.95,73.4,94,75,4.7,CO,1602977086
pelotas,-31.77,-52.34,66.99,85,98,1.99,BR,1602977286
sao jose da coroa grande,-8.9,-35.15,75.87,81,56,10.89,BR,1602977287
pinega,64.7,43.39,36.03,96,100,7.54,RU,1602977288
ugoofaaru,5.67,73.0,82.31,75,22,14.36,MV,1602977289
seymchan,62.88,152.43,26.94,81,59,8.5,RU,1602977290
sechura,-5.56,-80.82,70.3,68,39,15.28,PE,1602977292
thinadhoo,0.53,72.93,82.98,77,45,21.54,MV,1602977293
erenhot,43.65,111.98,39.02,65,0,4.54,CN,1602977294
darnah,32.77,22.64,76.51,62,79,4.34,LY,1602977296
cherskiy,68.75,161.3,22.33,94,75,13.24,RU,1602977207
lasa,46.62,10.7,41.0,93,40,8.05,IT,1602977276
ust-shonosha,61.15,41.34,31.73,98,77,7.05,RU,1602977299
waitati,-45.75,170.57,53.01,77,3,11.01,NZ,1602977300
leh,34.17,77.58,35.1,64,0,3.58,IN,1602977301
tsaratanana,-16.78,47.65,75.47,48,95,8.12,MG,1602977302
shimanovsk,52.0,127.7,27.45,79,0,12.28,RU,1602977304
auki,-8.77,160.7,88.2,60,87,1.86,SB,1602977268
luanda,-8.84,13.23,75.16,85,99,9.95,AO,1602977306
capitan bado,-23.27,-55.53,73.56,65,48,7.72,PY,1602977049
moroni,-11.7,43.26,76.51,78,0,5.59,KM,1602977308
bajil,15.06,43.29,87.03,57,0,1.14,YE,1602977309
yulara,-25.24,130.99,71.6,49,0,18.34,AU,1602977208
zvishavane,-20.33,30.07,67.68,58,0,1.95,ZW,1602977312
inhambane,-23.86,35.38,68.79,77,0,7.87,MZ,1602977259
georgetown,5.41,100.34,77.0,94,40,4.7,MY,1602977221
townsville,-19.25,146.8,79.0,65,40,12.75,AU,1602977315
ketchikan,55.34,-131.65,48.2,75,90,5.82,US,1602977316
poum,-20.23,164.02,73.56,75,13,10.47,NC,1602977317
san carlos de bariloche,-41.15,-71.31,53.01,75,75,25.28,AR,1602977318
volchikha,52.03,80.38,52.02,45,100,12.62,RU,1602977319
nizhniy chir,48.36,43.09,60.17,68,71,13.33,RU,1602977320
novopokrovka,49.84,36.55,60.8,93,90,6.71,UA,1602977321
lata,40.16,-8.33,60.01,93,20,4.7,PT,1602977251
bhuj,23.27,69.67,82.51,75,64,9.69,IN,1602977323
baruun-urt,46.68,113.28,30.87,87,0,6.26,MN,1602977324
cayenne,4.93,-52.33,78.8,88,20,10.87,GF,1602977040
doume,4.23,13.45,68.45,97,99,0.94,CM,1602977327
kysyl-syr,63.9,122.76,9.48,95,97,5.88,RU,1602977328
dakar,14.69,-17.44,82.4,94,40,8.9,SN,1602977248
seoul,37.57,126.98,48.2,87,1,0.89,KR,1602977227
peniche,39.36,-9.38,59.0,85,31,9.26,PT,1602977331
cilegon,-6.02,106.05,78.8,83,20,4.7,ID,1602977333
kanina,-10.73,25.47,68.4,58,21,3.94,CD,1602977334
itarema,-2.92,-39.92,79.23,79,84,15.73,BR,1602977335
alihe,50.57,123.72,28.13,83,3,6.62,CN,1602977336
chicama,-7.84,-79.15,66.54,72,36,6.71,PE,1602977337
little current,45.98,-81.92,42.8,87,90,13.87,CA,1602977338
ondangwa,-17.92,15.95,77.0,18,0,4.7,NA,1602977339
mancio lima,-7.61,-72.9,77.77,82,22,2.66,BR,1602977340
hofn,64.25,-15.21,40.96,82,100,3.0,IS,1602977262
mehamn,71.04,27.85,36.82,78,91,10.04,NO,1602977342
somanda,-3.37,33.95,75.87,40,84,12.33,TZ,1602977343
sinnamary,5.38,-52.95,81.14,80,89,11.54,GF,1602977230
carballo,43.21,-8.69,54.0,93,98,2.24,ES,1602977207
juybar,36.64,52.91,61.45,52,0,2.95,IR,1602977346
rongcheng,30.63,117.85,55.94,89,18,2.26,CN,1602977348
rawson,-43.3,-65.1,70.05,29,24,16.89,AR,1602977349
adrar,20.5,-10.07,88.56,20,0,9.15,MR,1602977206
langxiang,46.95,128.88,35.55,86,69,3.11,CN,1602977351
bar harbor,44.39,-68.2,45.0,86,1,3.36,US,1602977352
kununurra,-15.77,128.73,86.0,58,40,6.93,AU,1602977069
luena,-11.78,19.92,65.43,68,9,2.55,AO,1602977356
tabuk,17.42,121.44,75.79,87,75,3.22,PH,1602977357
borovoy,55.43,86.08,50.0,58,100,11.18,RU,1602977359
alizai,33.54,70.35,60.4,31,0,2.84,PK,1602977360
butajira,8.12,38.37,59.68,57,94,3.44,ET,1602977361
labuhan,-6.88,112.21,78.6,77,90,10.25,ID,1602977243
khorramshahr,30.44,48.17,69.8,49,0,4.7,IR,1602977363
dale,38.17,-86.99,60.8,29,1,6.93,US,1602977116
mount gambier,-37.83,140.77,55.4,62,90,8.05,AU,1602977212
rio esteban,15.83,-86.3,82.4,78,75,3.36,HN,1602977366
toktogul,41.87,72.94,53.47,44,0,0.38,KG,1602977367
hejnice,50.88,15.18,43.0,92,90,4.12,CZ,1602977370
arlit,18.74,7.39,90.81,12,0,6.8,NE,1602977228
abha,18.22,42.51,59.0,28,0,4.7,SA,1602977373
lexington park,38.27,-76.45,53.6,76,1,5.01,US,1602977374
namatanai,-3.67,152.43,82.42,74,100,3.24,PG,1602977218
alyangula,-13.85,136.42,82.4,78,40,5.82,AU,1602977353
saint-georges,12.06,-61.75,82.4,83,20,11.07,GD,1602977379
khandyga,62.67,135.6,18.28,96,100,3.98,RU,1602977285
bandarbeyla,9.49,50.81,79.32,78,1,7.63,SO,1602977232
fort nelson,58.81,-122.7,28.4,46,20,3.36,CA,1602977240
bosobolo,4.18,19.9,72.0,94,100,0.49,CD,1602977384
san cristobal,7.77,-72.22,87.8,48,40,13.87,VE,1602977255
songkhla,6.83,100.67,77.0,100,75,4.7,TH,1602977386
sakiai,54.95,23.04,39.2,86,81,1.12,LT,1602977387
visakhapatnam,17.69,83.21,79.74,80,85,5.35,IN,1602977388
moron,-34.65,-58.62,70.0,80,16,1.99,AR,1602977389
dutse,11.76,9.34,80.87,43,38,8.03,NG,1602977390
harper,4.38,-7.72,77.07,90,66,8.43,LR,1602977392
tlanepantla,18.85,-97.9,71.6,40,40,8.05,MX,1602977393
foca,38.67,26.76,68.0,82,75,4.83,TR,1602977394
ngunguru,-35.62,174.5,69.01,55,1,1.99,NZ,1602977204
kampot,10.62,104.18,77.0,94,75,10.29,KH,1602977396
miandrivazo,-19.52,45.47,77.47,65,1,0.54,MG,1602977397
bonthe,7.53,-12.51,78.64,88,14,6.4,SL,1602977398
mailsi,29.8,72.18,69.71,22,0,1.54,PK,1602977400
zhigalovo,54.81,105.16,39.02,88,100,4.92,RU,1602977401
gamba,-2.65,10.0,76.41,87,100,4.56,GA,1602977402
podgornoye,51.73,39.15,50.0,81,90,11.18,RU,1602977404
krasnoselkup,65.7,82.47,22.86,97,97,7.54,RU,1602977405
lethem,3.38,-59.8,84.67,48,100,4.9,GY,1602977408
ntchisi,-13.53,33.91,61.63,66,8,4.47,MW,1602977410
virginia beach,36.85,-75.98,57.0,58,20,3.36,US,1602977157
sembe,1.65,14.58,70.77,95,93,1.07,CG,1602977412
nome,64.5,-165.41,37.4,86,90,25.28,US,1602977204
simao,22.79,100.97,59.88,85,80,2.13,CN,1602977414
hammerfest,70.66,23.68,30.2,100,83,4.7,NO,1602977415
dingzhou,38.51,115.0,46.4,61,0,6.71,CN,1602977321
kyaukse,21.6,96.13,80.6,83,75,3.36,MM,1602977417
talnakh,69.49,88.4,28.4,86,100,13.42,RU,1602977318
santa isabel do rio negro,-0.41,-65.02,82.78,61,84,1.61,BR,1602977420
taltal,-25.4,-70.48,59.23,72,22,5.23,CL,1602977422
tessalit,20.2,1.01,84.7,16,0,7.54,ML,1602977254
bahia honda,22.9,-83.16,79.72,81,47,12.66,CU,1602977425
natchitoches,31.77,-93.13,69.8,60,90,6.93,US,1602977426
ahuimanu,21.44,-157.84,84.2,66,40,9.17,US,1602977427
zhengjiatun,43.51,123.51,43.56,58,0,7.61,CN,1602977429
nantucket,41.28,-70.1,54.0,54,1,9.17,US,1602977394
rafaela,-31.25,-61.49,84.0,55,37,1.99,AR,1602977431
sosua,19.77,-70.52,82.4,88,40,12.8,DO,1602977432
kiunga,-6.12,141.29,79.59,81,92,4.45,PG,1602977434
shakiso,5.75,38.92,58.46,97,100,0.87,ET,1602977436
havoysund,71.0,24.66,30.2,100,95,4.7,NO,1602977437
eydhafushi,5.1,73.07,81.88,78,18,14.99,MV,1602977438
smolenka,52.14,113.5,32.0,91,78,11.18,RU,1602977439
praia da vitoria,38.73,-27.07,60.8,67,20,13.82,PT,1602977318
zakamensk,50.37,103.29,31.98,85,51,2.66,RU,1602977441
rajgarh,28.63,75.38,72.37,22,0,2.44,IN,1602977443
linares,-35.85,-71.6,55.08,66,21,6.26,CL,1602977444
syracuse,37.09,15.28,62.01,93,34,8.05,IT,1602977445
kochubey,44.39,46.58,58.44,97,1,8.55,RU,1602977446
metairie,29.98,-90.15,72.0,49,1,8.05,US,1602977447
gua musang,4.88,101.96,75.51,89,100,0.72,MY,1602977448
kisangani,0.52,25.2,70.88,94,100,1.48,CD,1602977449
camaguey,21.38,-77.92,80.6,83,85,10.29,CU,1602977451
the valley,18.22,-63.06,82.4,78,20,9.17,AI,1602977306
majenang,-7.3,108.76,77.23,81,84,3.2,ID,1602977453
pangai,-19.8,-174.35,78.26,86,24,16.37,TO,1602977310
tabou,4.42,-7.35,77.07,91,64,7.81,CI,1602977455
rach gia,10.02,105.08,75.2,100,75,3.36,VN,1602977456
santiago del estero,-27.8,-64.26,86.38,43,9,10.07,AR,1602977457
honefoss,60.17,10.26,37.99,56,40,4.63,NO,1602977459
sant julia de loria,42.46,1.48,41.0,76,50,4.7,AD,1602977460
bud,39.45,-86.18,57.2,30,1,11.41,US,1602977461
ustrzyki dolne,49.43,22.59,37.0,93,100,11.99,PL,1602977462
haines junction,60.75,-137.51,24.98,71,0,1.9,CA,1602977214
vammala,61.33,22.9,41.0,86,90,4.7,FI,1602977465
puerto madryn,-42.77,-65.04,67.08,37,31,14.94,AR,1602977466
ilebo,-4.32,20.58,70.57,95,69,0.76,CD,1602977467
changying,52.87,123.32,23.9,82,25,6.76,CN,1602977469
teacapan,22.55,-105.75,86.14,77,0,11.9,MX,1602977470
chumikan,54.72,135.31,29.86,91,100,8.93,RU,1602977280
yafran,32.06,12.53,57.69,74,100,7.2,LY,1602977472
filadelfia,39.95,-75.16,57.0,36,20,3.36,US,1602977105
vetovo,43.7,26.27,50.0,67,0,11.86,BG,1602977474
srednekolymsk,67.45,153.68,24.49,97,74,8.16,RU,1602977294
lusambo,-4.97,23.45,69.82,91,14,0.74,CD,1602977476
santa marinella,42.03,11.85,48.99,89,0,4.7,IT,1602977477
jizan,17.33,42.67,82.4,78,0,0.83,SA,1602977478
aktash,50.3,87.73,24.12,80,100,5.12,RU,1602977299
farafenni,13.57,-15.6,80.24,80,0,5.26,GM,1602977482
lakatoro,-16.1,167.42,82.4,69,40,5.82,VU,1602977483
oranjemund,-28.55,16.43,58.01,91,1,7.36,NA,1602977484
mount isa,-20.73,139.5,87.8,43,0,12.75,AU,1602977485
svetlogorsk,52.63,29.73,42.06,93,100,11.52,BY,1602977235
kaitangata,-46.28,169.85,53.22,62,29,4.92,NZ,1602977239
saint anthony,45.02,-93.22,46.0,65,90,11.41,US,1602977247
namibe,-15.2,12.15,69.08,74,14,8.77,AO,1602977245
surab,28.49,66.26,50.38,33,0,9.51,PK,1602977490
fort abbas,29.19,72.85,71.92,21,0,2.44,PK,1602977492
gornopravdinsk,60.05,69.9,30.18,93,95,15.03,RU,1602977493
quixada,-4.97,-39.02,74.86,83,51,10.22,BR,1602977426
